Location	Lat	Long
MountCameroon	4.28782	9.10535
Ebo	4.34543	10.41474
LiabelemHighlands	5.399501	9.571436
Mone	5.927165	9.480388
Takamanda	6.16834	9.26445
Sabongida	6.84265	10.38777
Bankim	6.123408	11.620949
MountGolep	5.091681	11.251401
Yagba	5.097671	11.533904
Vome	5.8104	12.1967
MbamDjerem	5.99759	12.87796
Makombe	5.3895	12.7441
Wouchaba	5.381611	13.092472
Batanga	5.191496	13.290114
DengDeng	5.37184	13.48651
Minta	4.55219	12.912
Dja	3.31061	12.73694
Lobeke	2.44953	15.40937
